{"points":[{"type":"Feature","properties":{"name":"82 Smugglers View Rd","description":"<a href=\"http://www.watsonswander.com/2012/day-1-goodbye-house-goodbye-jeffersonville/\" title=\"Permalink to Day 1- Goodbye House, Goodbye Jeffersonville\" rel=\"bookmark\" target=\"_blank\">Day 1- Goodbye House, Goodbye Jeffersonville</a>","city":"Cambridge","state":"Vermont"},"geometry":{"type":"Point","coordinates":[-72.781914,44.597923]}},{"type":"Feature","properties":{"name":"Lang Farm Nursery","description":"<a href=\"http://www.watsonswander.com/2012/day-1-goodbye-house-goodbye-jeffersonville/\" title=\"Permalink to Day 1- Goodbye House, Goodbye Jeffersonville\" rel=\"bookmark\" target=\"_blank\">Day 1- Goodbye House, Goodbye Jeffersonville</a>","city":"Essex Junction","state":"Vermont"},"geometry":{"type":"Point","coordinates":[-73.08989,44.505379]}},{"type":"Feature","properties":{"name":"Chapin Rd","description":"<a href=\"http://www.watsonswander.com/2012/day-2-last-day-in-vermont/\" title=\"Permalink to Day 2- Last Day in Vermont\" rel=\"bookmark\" target=\"_blank\">Day 2- Last Day in Vermont</a>","city":"Essex Junction","state":"Vermont"},"geometry":{"type":"Point","coordinates":[-73.063545,44.524876]}},{"type":"Feature","properties":{"name":"Long Point State Park","description":"<a href=\"http://www.watsonswander.com/2012/lake-ontario/\" title=\"Permalink to Lake Ontario\" rel=\"bookmark\" target=\"_blank\">Lake Ontario</a>","city":"Three Mile Bay","state":"New York"},"geometry":{"type":"Point","coordinates":[-76.216934,44.028088]}},{"type":"Feature","properties":{"name":"Keuka Lake","description":"<a href=\"http://www.watsonswander.com/2012/keuka-lake-arrival/\" title=\"Permalink to Keuka Lake Arrival\" rel=\"bookmark\" target=\"_blank\">Keuka Lake Arrival</a> - <a href=\"http://www.watsonswander.com/2012/keuka-lake-outlet-trail/\" title=\"Permalink to Keuka Lake Outlet Trail\" rel=\"bookmark\" target=\"_blank\">Keuka Lake Outlet Trail</a> - <a href=\"http://www.watsonswander.com/2012/last-day-at-keuka-lake/\" title=\"Permalink to Last Day at Keuka Lake\" rel=\"bookmark\" target=\"_blank\">Last Day at Keuka Lake</a>","city":"Keuka Park","state":"New York"},"geometry":{"type":"Point","coordinates":[-77.132164,42.586281]}},{"type":"Feature","properties":{"name":"Sampson State Park","description":"<a href=\"http://www.watsonswander.com/2012/sampson-state-park/\" title=\"Permalink to Sampson State Park\" rel=\"bookmark\" target=\"_blank\">Sampson State Park</a> - <a href=\"http://www.watsonswander.com/2012/wine-and-water/\" title=\"Permalink to Wine and Water\" rel=\"bookmark\" target=\"_blank\">Wine and Water</a>","city":"Romulus","state":"New York"},"geometry":{"type":"Point","coordinates":[-76.912796,42.732578]}},{"type":"Feature","properties":{"name":"Buckaloons Recreation Area","description":"<a href=\"http://www.watsonswander.com/2012/forest-love/\" title=\"Permalink to Forest love\" rel=\"bookmark\" target=\"_blank\">Forest love</a> - <a href=\"http://www.watsonswander.com/2012/allegheny-national-forest/\" title=\"Permalink to Allegheny National Forest\" rel=\"bookmark\" target=\"_blank\">Allegheny National Forest</a>","city":"Tidioute","state":"Pennsylvania"},"geometry":{"type":"Point","coordinates":[-79.257858,41.837086]}},{"type":"Feature","properties":{"name":"Penn Wood Airstream Park","description":"<a href=\"http://www.watsonswander.com/2012/airstreams-airstreams-everywhere/\" title=\"Permalink to Airstreams, airstreams everywhere!\" rel=\"bookmark\" target=\"_blank\">Airstreams, airstreams everywhere!</a> - <a href=\"http://www.watsonswander.com/2012/cook-forest-mosquito-lake/\" title=\"Permalink to Cook Forest + Mosquito Lake\" rel=\"bookmark\" target=\"_blank\">Cook Forest + Mosquito Lake</a>","city":"New Bethlehem","state":"Pennsylvania"},"geometry":{"type":"Point","coordinates":[-79.32885,41.128006]}},{"type":"Feature","properties":{"name":"Mosquito Lake State Park","description":"<a href=\"http://www.watsonswander.com/2012/cook-forest-mosquito-lake/\" title=\"Permalink to Cook Forest + Mosquito Lake\" rel=\"bookmark\" target=\"_blank\">Cook Forest + Mosquito Lake</a> - <a href=\"http://www.watsonswander.com/2012/a-boring-hike-a-good-book/\" title=\"Permalink to A boring hike &amp; a good book\" rel=\"bookmark\" target=\"_blank\">A boring hike &amp; a good book</a>","city":"Cortland","state":"Ohio"},"geometry":{"type":"Point","coordinates":[-80.774231,41.338154]}},{"type":"Feature","properties":{"name":"Cabelas","description":"<a href=\"http://www.watsonswander.com/2012/sleeping-with-the-big-rigs/\" title=\"Permalink to Sleeping with the big rigs\" rel=\"bookmark\" target=\"_blank\">Sleeping with the big rigs</a>","city":"Dundee","state":"Michigan"},"geometry":{"type":"Point","coordinates":[-83.675095,41.964802]}},{"type":"Feature","properties":{"name":"A Driveway","description":"<a href=\"http://www.watsonswander.com/2012/happy-4th-of-july/\" title=\"Permalink to Happy 4th of July\" rel=\"bookmark\" target=\"_blank\">Happy 4th of July</a> - <a href=\"http://www.watsonswander.com/2012/family-time-beach-time/\" title=\"Permalink to Family time- Beach time\" rel=\"bookmark\" target=\"_blank\">Family time- Beach time</a>","city":"Mt Clemens","state":"Michigan"},"geometry":{"type":"Point","coordinates":[-82.898705,42.583084]}},{"type":"Feature","properties":{"name":"Claybanks Township Park","description":"<a href=\"http://www.watsonswander.com/2012/family-time-beach-time/\" title=\"Permalink to Family time- Beach time\" rel=\"bookmark\" target=\"_blank\">Family time- Beach time</a> - <a href=\"http://www.watsonswander.com/2012/lake-michigan/\" title=\"Permalink to Lake Michigan\" rel=\"bookmark\" target=\"_blank\">Lake Michigan</a> - <a href=\"http://www.watsonswander.com/2012/muskegon-farmers-market/\" title=\"Permalink to Muskegon Farmer’s Market\" rel=\"bookmark\" target=\"_blank\">Muskegon Farmer’s Market</a>","city":"New Era","state":"Michigan"},"geometry":{"type":"Point","coordinates":[-86.484657,43.52673]}},{"type":"Feature","properties":{"name":"D H Day Campground","description":"<a href=\"http://www.watsonswander.com/2012/sleeping-bear-dunes/\" title=\"Permalink to Sleeping Bear Dunes\" rel=\"bookmark\" target=\"_blank\">Sleeping Bear Dunes</a>","city":"Empire","state":"Michigan"},"geometry":{"type":"Point","coordinates":[-86.021446,44.89674]}},{"type":"Feature","properties":{"name":"Brevoort Lake Campground","description":"<a href=\"http://www.watsonswander.com/2012/up-in-the-u-p/\" title=\"Permalink to Up in the U.P.\" rel=\"bookmark\" target=\"_blank\">Up in the U.P.</a>","city":"Moran","state":"Michigan"},"geometry":{"type":"Point","coordinates":[-84.969505,46.011398]}},{"type":"Feature","properties":{"name":"Little Bay Campground","description":"<a href=\"http://www.watsonswander.com/2012/little-bay-de-noc/\" title=\"Permalink to Little Bay De Noc\" rel=\"bookmark\" target=\"_blank\">Little Bay De Noc</a>","city":"Rapid River","state":"Michigan"},"geometry":{"type":"Point","coordinates":[-87.002495,45.82795]}},{"type":"Feature","properties":{"name":"Memorial Park","description":"<a href=\"http://www.watsonswander.com/2012/lake-superior-we-make-it-to-wisconsin/\" title=\"Permalink to Lake Superior + we make it to Wisconsin\" rel=\"bookmark\" target=\"_blank\">Lake Superior + we make it to Wisconsin</a>","city":"Washburn","state":"Wisconsin"},"geometry":{"type":"Point","coordinates":[-90.880318,46.676277]}},{"type":"Feature","properties":{"name":"Indian Point Campground","description":"<a href=\"http://www.watsonswander.com/2012/city-time/\" title=\"Permalink to City Time\" rel=\"bookmark\" target=\"_blank\">City Time</a>","city":"Duluth","state":"Minnesota"},"geometry":{"type":"Point","coordinates":[-92.186028,46.722298]}},{"type":"Feature","properties":{"name":"Gooseberry Falls State Park","description":"<a href=\"http://www.watsonswander.com/2012/gooseberry-falls/\" title=\"Permalink to Gooseberry Falls\" rel=\"bookmark\" target=\"_blank\">Gooseberry Falls</a>","city":"Two Harbors","state":"Minnesota"},"geometry":{"type":"Point","coordinates":[-91.464317,47.145386]}},{"type":"Feature","properties":{"name":"Temperance River State Park","description":"<a href=\"http://www.watsonswander.com/2012/temperance-river/\" title=\"Permalink to Temperance River\" rel=\"bookmark\" target=\"_blank\">Temperance River</a>","city":"Schroeder","state":"Minnesota"},"geometry":{"type":"Point","coordinates":[-90.877449,47.552563]}},{"type":"Feature","properties":{"name":"Sandy Lake and Dam","description":"<a href=\"http://www.watsonswander.com/2012/this-is-real-life/\" title=\"Permalink to This is real life…\" rel=\"bookmark\" target=\"_blank\">This is real life…</a>","city":"McGregor","state":"Minnesota"},"geometry":{"type":"Point","coordinates":[-93.320496,46.785614]}},{"type":"Feature","properties":{"name":"Lebanon Hills Park Campground","description":"<a href=\"http://www.watsonswander.com/2012/the-twin-cities/\" title=\"Permalink to The Twin Cities\" rel=\"bookmark\" target=\"_blank\">The Twin Cities</a>","city":"Apple Valley","state":"Minnesota"},"geometry":{"type":"Point","coordinates":[-93.184982,44.774464]}},{"type":"Feature","properties":{"name":"Arlington City Park","description":"<a href=\"http://www.watsonswander.com/2012/676/\" target=\"_blank\">Corn, Soy &amp; Wind</a>","city":"Arlington","state":"South Dakota"},"geometry":{"type":"Point","coordinates":[-97.129349,44.361488]}},{"type":"Feature","properties":{"name":"Badlands National Park","description":"<a href=\"http://www.watsonswander.com/2012/south-dakota-badlands-national-park-part-i/\" title=\"Permalink to South Dakota + Badlands National Park part I\" rel=\"bookmark\" target=\"_blank\">South Dakota + Badlands National Park part I</a> - <a href=\"http://www.watsonswander.com/2012/badlands-national-park-part-ii/\" title=\"Permalink to Badlands National Park part II\" rel=\"bookmark\" target=\"_blank\">Badlands National Park part II</a>","city":"Interior","state":"South Dakota"},"geometry":{"type":"Point","coordinates":[-101.94883,43.743073]}},{"type":"Feature","properties":{"name":"Bismark Lake Campground","description":"<a href=\"http://www.watsonswander.com/2012/730/\" title=\"Permalink to Black Hills\" rel=\"bookmark\" target=\"_blank\">Black Hills</a>","city":"Custer","state":"South Dakota"},"geometry":{"type":"Point","coordinates":[-103.510193,43.775822]}},{"type":"Feature","properties":{"name":"Riverside Park","description":"<a href=\"http://www.watsonswander.com/2012/scenes-from-sunday/\" title=\"Permalink to Scenes from Sunday\" rel=\"bookmark\" target=\"_blank\">Scenes from Sunday</a>","city":"Douglas","state":"Wyoming"},"geometry":{"type":"Point","coordinates":[-105.391792,42.762562]}},{"type":"Feature","properties":{"name":"Longhorn RV & Motel","description":"","city":"Dubois","state":"Wyoming"},"geometry":{"type":"Point","coordinates":[-109.589592,43.514736]}},{"type":"Feature","properties":{"name":"Turpin Meadow Campground","description":"<a href=\"http://www.watsonswander.com/2012/from-turpin-meadow-to-jackson/\" title=\"Permalink to From Turpin Meadow to Jackson\" rel=\"bookmark\" target=\"_blank\">From Turpin Meadow to Jackson</a> ","city":"Moran","state":"Wyoming"},"geometry":{"type":"Point","coordinates":[-110.26297,43.854946]}},{"type":"Feature","properties":{"name":"Signal Mountain Campground","description":"<a href=\"http://www.watsonswander.com/2012/from-turpin-meadow-to-jackson/\" title=\"Permalink to From Turpin Meadow to Jackson\" rel=\"bookmark\" target=\"_blank\">From Turpin Meadow to Jackson</a> - <a href=\"http://www.watsonswander.com/2012/last-day-in-the-tetons-free-camping-on-grassy-lake-rd/\" title=\"Permalink to Last day in the Tetons + free camping on Grassy Lake Rd\" rel=\"bookmark\" target=\"_blank\">Last day in the Tetons + free camping on Grassy Lake Rd</a>","city":"Alta","state":"Wyoming"},"geometry":{"type":"Point","coordinates":[-110.612602,43.842171]}},{"type":"Feature","properties":{"name":"Grassy Lake Rd","description":"<a href=\"http://www.watsonswander.com/2012/last-day-in-the-tetons-free-camping-on-grassy-lake-rd/\" title=\"Permalink to Last day in the Tetons + free camping on Grassy Lake Rd\" rel=\"bookmark\" target=\"_blank\">Last day in the Tetons + free camping on Grassy Lake Rd</a>","city":"Moran","state":"Wyoming"},"geometry":{"type":"Point","coordinates":[-110.686226,44.10321]}},{"type":"Feature","properties":{"name":"Indian Creak","description":"<a href=\"http://www.watsonswander.com/2012/great-gurgling-geysers/\" title=\"Permalink to Great gurgling geysers!\" rel=\"bookmark\" target=\"_blank\">Great gurgling geysers!</a> - <a href=\"http://www.watsonswander.com/2012/yellowstone-part-iii/\" title=\"Permalink to Yellowstone part III\" rel=\"bookmark\" target=\"_blank\">Yellowstone part III</a>","city":"Yellowstone National Park","state":"Wyoming"},"geometry":{"type":"Point","coordinates":[-110.736313,44.885979]}},{"type":"Feature","properties":{"name":"Rock Canyon RV Park","description":"<a href=\"http://www.watsonswander.com/2012/5-nights/\" title=\"Permalink to 5 Nights\" rel=\"bookmark\" target=\"_blank\">5 Nights</a>","city":"Livingston","state":"Montana"},"geometry":{"type":"Point","coordinates":[-110.578629,45.621239]}},{"type":"Feature","properties":{"name":"Lewis and Clark Cavern State Park","description":"<a href=\"http://www.watsonswander.com/2012/stuart-mill-bay/\" title=\"Permalink to Stuart Mill Bay\" rel=\"bookmark\" target=\"_blank\">Stuart Mill Bay</a>","city":"Whitehall","state":"Montana"},"geometry":{"type":"Point","coordinates":[-111.86142,45.833576]}},{"type":"Feature","properties":{"name":"Stuart Mill Bay Campground","description":"<a href=\"http://www.watsonswander.com/2012/stuart-mill-bay/\" title=\"Permalink to Stuart Mill Bay\" rel=\"bookmark\" target=\"_blank\">Stuart Mill Bay</a> - <a href=\"http://www.watsonswander.com/2012/day-2-at-georgetown-lake/\" title=\"Permalink to Day 2 at Georgetown Lake\" rel=\"bookmark\" target=\"_blank\">Day 2 at Georgetown Lake</a>","city":"Anaconda","state":"Montana"},"geometry":{"type":"Point","coordinates":[-113.272278,46.176315]}},{"type":"Feature","properties":{"name":"Walmart Supercenter","description":"<a href=\"http://www.watsonswander.com/2012/a-day-in-missoula-mt/\" title=\"Permalink to A day in Missoula, MT\" rel=\"bookmark\" target=\"_blank\">A day in Missoula, MT</a>","city":"Missoula","state":"Montana"},"geometry":{"type":"Point","coordinates":[-114.042007,46.88393]}},{"type":"Feature","properties":{"name":"Big Arm State Park","description":"<a href=\"http://www.watsonswander.com/2012/flathead-lake/\" title=\"Permalink to Flathead Lake\" rel=\"bookmark\" target=\"_blank\">Flathead Lake</a>","city":"Big Arm","state":"Montana"},"geometry":{"type":"Point","coordinates":[-114.310081,47.813038]}},{"type":"Feature","properties":{"name":"Avalanche Campground, Glacier National Park","description":"<a href=\"http://www.watsonswander.com/2012/glacier-national-park/\" title=\"Permalink to Glacier National Park\" rel=\"bookmark\" target=\"_blank\">Glacier National Park</a>","city":"West Glacier","state":"Montana"},"geometry":{"type":"Point","coordinates":[-113.818275,48.678383]}},{"type":"Feature","properties":{"name":"Apgar Campground, Glacier National Park","description":"<a href=\"http://www.watsonswander.com/2012/last-day-at-glacier-np/\" title=\"Permalink to Last day at Glacier NP\" rel=\"bookmark\" target=\"_blank\">Last day at Glacier NP</a>","city":"West Glacier","state":"Montana"},"geometry":{"type":"Point","coordinates":[-113.981865,48.525074]}},{"type":"Feature","properties":{"name":"Firemans Park Campground","description":"","city":"Libby","state":"Montana"},"geometry":{"type":"Point","coordinates":[-115.563522,48.390556]}},{"type":"Feature","properties":{"name":"Schweitzer Mountain Resort","description":"<a href=\"http://www.watsonswander.com/2012/3-days-8-bands-and-50-beers/\" title=\"Permalink to 3 days, 8 bands and 50 beers\" rel=\"bookmark\" target=\"_blank\">3 days, 8 bands and 50 beers</a>","city":"Sandpoint","state":"Idaho"},"geometry":{"type":"Point","coordinates":[-116.623283,48.367493]}},{"type":"Feature","properties":{"name":"Northern Quest Resort & Casino","description":"<a href=\"http://www.watsonswander.com/2012/casino-night/\" title=\"Permalink to Casino night\" rel=\"bookmark\" target=\"_blank\">Casino night</a>","city":"Airway Heights","state":"Washington"},"geometry":{"type":"Point","coordinates":[-117.561325,47.658623]}},{"type":"Feature","properties":{"name":"Bridgeport State Park","description":"","city":"Bridgeport","state":"Washington"},"geometry":{"type":"Point","coordinates":[-119.618546,48.010578]}},{"type":"Feature","properties":{"name":"Newhalem Campground, Northern Cascades NP","description":"<a href=\"http://www.watsonswander.com/2012/north-cascades-national-park/\" title=\"Permalink to North Cascades National Park\" rel=\"bookmark\" target=\"_blank\">North Cascades National Park</a>","city":"Marblemount","state":"Washington"},"geometry":{"type":"Point","coordinates":[-121.261337,48.671238]}},{"type":"Feature","properties":{"name":"Deception Pass State Park","description":"<a href=\"http://www.watsonswander.com/2012/deception-pass-state-park/\" title=\"Permalink to Deception Pass State Park\" rel=\"bookmark\" target=\"_blank\">Deception Pass State Park</a> - <a href=\"http://www.watsonswander.com/2012/exploring-deception-pass-s-p/\" title=\"Permalink to Exploring Deception Pass S.P.\" rel=\"bookmark\" target=\"_blank\">Exploring Deception Pass S.P.</a>","city":"Oak Harbor","state":"Washington"},"geometry":{"type":"Point","coordinates":[-122.64399,48.400715]}},{"type":"Feature","properties":{"name":"Fort Worden State Park","description":"<a href=\"http://www.watsonswander.com/2012/small-towns-and-a-ferry-ride/\" title=\"Permalink to Small towns and a ferry ride\" rel=\"bookmark\" target=\"_blank\">Small towns and a ferry ride</a>","city":"Port Townsend","state":"Washington"},"geometry":{"type":"Point","coordinates":[-122.773933,48.139172]}},{"type":"Feature","properties":{"name":"Heart O Hills, Olympic National Park","description":"<a href=\"http://www.watsonswander.com/2012/hurricane-ridge-storm-king-mtn/\" title=\"Permalink to Hurricane Ridge + Storm King Mtn\" rel=\"bookmark\" target=\"_blank\">Hurricane Ridge + Storm King Mtn</a>","city":"Port Angeles","state":"Washington"},"geometry":{"type":"Point","coordinates":[-123.429916,48.036278]}},{"type":"Feature","properties":{"name":"Mora, Olympic National Park","description":"<a href=\"http://www.watsonswander.com/2012/rilato-beach/\" title=\"Permalink to Rilato Beach\" rel=\"bookmark\" target=\"_blank\">Rilato Beach</a>","city":"Forks","state":"Washington"},"geometry":{"type":"Point","coordinates":[-124.607903,47.917377]}},{"type":"Feature","properties":{"name":"Quinault Marina & RV Park","description":"<a href=\"http://www.watsonswander.com/2012/ocean-shores-washington/\" title=\"Permalink to Ocean Shores, Washington\" rel=\"bookmark\" target=\"_blank\">Ocean Shores, Washington</a>","city":"Ocean Shores","state":"Washington"},"geometry":{"type":"Point","coordinates":[-124.133224,46.947048]}},{"type":"Feature","properties":{"name":"Fort Stevens State Park","description":"<a href=\"http://www.watsonswander.com/2012/fort-stevens-state-park/\" title=\"Permalink to Fort Stevens State Park\" rel=\"bookmark\" target=\"_blank\">Fort Stevens State Park</a>","city":"Hammond","state":"Oregon"},"geometry":{"type":"Point","coordinates":[-123.980057,46.19791]}},{"type":"Feature","properties":{"name":"Henry Rierson Spruce Run Campground","description":"","city":"Seaside","state":"Oregon"},"geometry":{"type":"Point","coordinates":[-123.611748,45.812645]}},{"type":"Feature","properties":{"name":"Columbia River RV Park","description":"<a href=\"http://www.watsonswander.com/2012/two-days-in-portland/\" title=\"Permalink to Two days in Portland\" rel=\"bookmark\" target=\"_blank\">Two days in Portland</a>","city":"Portland","state":"Oregon"},"geometry":{"type":"Point","coordinates":[-122.653763,45.599895]}},{"type":"Feature","properties":{"name":"Cape Lookout State Park","description":"<a href=\"http://www.watsonswander.com/2012/cape-lookout-state-park/\" title=\"Permalink to Cape Lookout State Park\" rel=\"bookmark\" target=\"_blank\">Cape Lookout State Park</a>","city":"Tillamook","state":"Oregon"},"geometry":{"type":"Point","coordinates":[-123.970345,45.372833]}},{"type":"Feature","properties":{"name":"Beverly Beach State Park","description":"<a href=\"http://www.watsonswander.com/2012/beverly-beach-state-park/\" title=\"Permalink to Beverly Beach State Park\" rel=\"bookmark\" target=\"_blank\">Beverly Beach State Park</a>","city":"Newport","state":"Oregon"},"geometry":{"type":"Point","coordinates":[-124.053474,44.730087]}},{"type":"Feature","properties":{"name":"South Beach State Park","description":"<a href=\"http://www.watsonswander.com/2012/south-beach-state-park/\" title=\"Permalink to South Beach State Park\" rel=\"bookmark\" target=\"_blank\">South Beach State Park</a>","city":"Newport","state":"Oregon"},"geometry":{"type":"Point","coordinates":[-124.063797,44.606602]}},{"type":"Feature","properties":{"name":"Valley River Center","description":"<a href=\"http://www.watsonswander.com/2012/mall-parking-in-eugene/\" title=\"Permalink to Mall parking in Eugene\" rel=\"bookmark\" target=\"_blank\">Mall parking in Eugene</a>","city":"Eugene","state":"Oregon"},"geometry":{"type":"Point","coordinates":[-123.108093,44.067348]}},{"type":"Feature","properties":{"name":"Armitage County Park","description":"<a href=\"http://www.watsonswander.com/2012/exploring-eugene/\" title=\"Permalink to Exploring Eugene\" rel=\"bookmark\" target=\"_blank\">Exploring Eugene</a>","city":"Eugene","state":"Oregon"},"geometry":{"type":"Point","coordinates":[-123.052109,44.11076]}},{"type":"Feature","properties":{"name":"Bastendorff Beach Park","description":"<a href=\"http://www.watsonswander.com/2012/bastendorff-beach/\" title=\"Permalink to Bastendorff Beach\" rel=\"bookmark\" target=\"_blank\">Bastendorff Beach</a>","city":"Coos Bay","state":"Oregon"},"geometry":{"type":"Point","coordinates":[-124.349785,43.341362]}},{"type":"Feature","properties":{"name":"Bastendorff Beach ","description":"<a href=\"http://www.watsonswander.com/2012/bastendorff-beach/\" title=\"Permalink to Bastendorff Beach\" rel=\"bookmark\" target=\"_blank\">Bastendorff Beach</a>","city":"Coos Bay","state":"Oregon"},"geometry":{"type":"Point","coordinates":[-124.348549,43.34436]}},{"type":"Feature","properties":{"name":"Winchester Bay RV Resort","description":"<a href=\"http://www.watsonswander.com/2012/hiking-the-dunes/\" title=\"Permalink to Hiking the dunes\" rel=\"bookmark\" target=\"_blank\">Hiking the dunes</a>","city":"Winchester Bay","state":"Oregon"},"geometry":{"type":"Point","coordinates":[-124.184853,43.676971]}},{"type":"Feature","properties":{"name":"Bullards Beach State Park","description":"<a href=\"http://www.watsonswander.com/2012/bullards-beach-state-park/\" title=\"Permalink to Bullards Beach State Park\" rel=\"bookmark\" target=\"_blank\">Bullards Beach State Park</a>","city":"Bandon","state":"Oregon"},"geometry":{"type":"Point","coordinates":[-124.401627,43.1516]}},{"type":"Feature","properties":{"name":"Cape Blanco State Park","description":"<a href=\"http://www.watsonswander.com/2012/cape-blanco-state-park/\" title=\"Permalink to Cape Blanco State Park\" rel=\"bookmark\" target=\"_blank\">Cape Blanco State Park</a>","city":"Sixes","state":"Oregon"},"geometry":{"type":"Point","coordinates":[-124.538269,42.829147]}},{"type":"Feature","properties":{"name":"Humbug Mountain State Park","description":"<a href=\"http://www.watsonswander.com/2012/humbug-mountain-state-park/\" title=\"Permalink to Humbug Mountain State Park\" rel=\"bookmark\" target=\"_blank\">Humbug Mountain State Park</a>","city":"Port Orford","state":"Oregon"},"geometry":{"type":"Point","coordinates":[-124.435272,42.687485]}},{"type":"Feature","properties":{"name":"Harris Beach State Park","description":"","city":"Brookings","state":"Oregon"},"geometry":{"type":"Point","coordinates":[-124.309441,42.065479]}},{"type":"Feature","properties":{"name":"Florence Keller Regional Park","description":"<a href=\"http://www.watsonswander.com/2012/florence-keller-campground/\" title=\"Permalink to Romping in the Redwoods\" rel=\"bookmark\" target=\"_blank\">Romping in the Redwoods</a>","city":"Crescent City","state":"California"},"geometry":{"type":"Point","coordinates":[-124.151764,41.807686]}},{"type":"Feature","properties":{"name":"Clam Beach State Campground","description":"<a href=\"http://www.watsonswander.com/2012/clam-beach-county-park/\" title=\"Permalink to Clam Beach County Park\" rel=\"bookmark\" target=\"_blank\">Clam Beach County Park</a>","city":"McKinleyville","state":"California"},"geometry":{"type":"Point","coordinates":[-124.114532,40.995106]}},{"type":"Feature","properties":{"name":"Humboldt Redwoods State Parks","description":"<a href=\"http://www.watsonswander.com/2012/on-the-move/\" title=\"Permalink to On the move…\" rel=\"bookmark\" target=\"_blank\">On the move…</a>","city":"Humboldt","state":"California"},"geometry":{"type":"Point","coordinates":[-123.977882,40.314812]}},{"type":"Feature","properties":{"name":"Van Damme State Park","description":"<a href=\"http://www.watsonswander.com/2012/on-the-move/\" title=\"Permalink to On the move…\" rel=\"bookmark\" target=\"_blank\">On the move…</a>","city":"Little River","state":"California"},"geometry":{"type":"Point","coordinates":[-123.785706,39.276382]}},{"type":"Feature","properties":{"name":"Westside Regional Park","description":"<a href=\"http://www.watsonswander.com/2012/bodega-bay-ca/\" title=\"Permalink to Bodega Bay, CA\" rel=\"bookmark\" target=\"_blank\">Bodega Bay, CA</a>","city":"Bodega Bay","state":"California"},"geometry":{"type":"Point","coordinates":[-123.055626,38.322323]}},{"type":"Feature","properties":{"name":"Sonoma County Fairgrounds","description":"<a href=\"http://www.watsonswander.com/2012/santa-rosa-ca/\" title=\"Permalink to Wining, Dining and Walking in Santa Rosa, CA\" rel=\"bookmark\" target=\"_blank\">Wining, Dining and Walking in Santa Rosa, CA</a>","city":"Santa Rosa","state":"California"},"geometry":{"type":"Point","coordinates":[-122.700493,38.429455]}},{"type":"Feature","properties":{"name":"Half Moon Bay State Beach","description":"<a href=\"http://www.watsonswander.com/2012/half-moon-bay/\" title=\"Permalink to Half Moon Bay\" rel=\"bookmark\" target=\"_blank\">Half Moon Bay</a>","city":"Half Moon Bay","state":"California"},"geometry":{"type":"Point","coordinates":[-122.445671,37.46563]}},{"type":"Feature","properties":{"name":"New Brighton Beach State Park","description":"<a href=\"http://www.watsonswander.com/2012/cruisin-through-santa-cruz/\" title=\"Permalink to Cruisin’ through Santa Cruz\" rel=\"bookmark\" target=\"_blank\">Cruisin’ through Santa Cruz</a>","city":"Capitola","state":"California"},"geometry":{"type":"Point","coordinates":[-121.935242,36.980343]}},{"type":"Feature","properties":{"name":"Laguna Seca Raceway","description":"","city":"Monterey","state":"California"},"geometry":{"type":"Point","coordinates":[-121.752319,36.583366]}},{"type":"Feature","properties":{"name":"El Chorro Regional Park","description":"","city":"San Luis Obispo","state":"California"},"geometry":{"type":"Point","coordinates":[-120.731186,35.332058]}},{"type":"Feature","properties":{"name":"57897-58273 Afton Rd","description":"Baker, CA 92309<br>","city":"Baker","state":"California"},"geometry":{"type":"Point","coordinates":[-116.392578,35.043976]}}],"track":[{"type":"Feature","id":"01","properties":{"name":"Linestring"},"geometry":{"type":"LineString","coordinates":[[-72.782204,44.597889],[-72.82663,44.62434],[-72.866577,44.647079],[-72.934868,44.600449],[-72.945023,44.53294],[-73.019867,44.502331],[-73.065804,44.517319],[-73.13205,44.530689],[-73.160751,44.580311],[-73.25695,44.631828],[-73.307869,44.691879],[-73.274162,44.830189],[-73.278214,44.886909],[-73.270752,44.952591],[-73.32135,44.998299],[-73.437759,44.97855],[-73.577919,44.96558],[-73.672371,44.936001],[-73.805939,44.90332],[-73.955994,44.9338],[-74.205719,44.91618],[-74.452103,44.838909],[-74.648483,44.776009],[-74.845131,44.75407],[-75.033867,44.661572],[-75.189362,44.5783],[-75.37989,44.434509],[-75.451347,44.343048],[-75.579536,44.305199],[-75.64595,44.277592],[-75.754211,44.23317],[-75.822731,44.210209],[-75.964394,44.196571],[-76.030663,44.092751],[-76.161652,44.07592],[-76.275879,44.051399],[-76.23365,44.023941],[-76.283684,44.02578],[-76.207039,44.08094],[-76.044151,44.010078],[-76.125572,43.894642],[-76.200111,43.796539],[-76.183449,43.70779],[-76.149963,43.641499],[-76.252769,43.512589],[-76.431091,43.465351],[-76.570099,43.34885],[-76.572952,43.180099],[-76.556557,43.072922],[-76.665604,43.02729],[-76.85273,42.968719],[-76.917511,42.893559],[-76.99688,42.858391],[-77.052101,42.81041],[-77.094727,42.624199],[-77.132561,42.590019],[-77.068138,42.65836],[-76.971527,42.72961],[-76.983833,42.860222],[-76.93782,42.862461],[-76.908836,42.736679],[-76.891273,42.711189],[-76.833641,42.602901],[-76.871902,42.499771],[-76.854958,42.38718],[-76.942612,42.310799],[-77.010262,42.195889],[-77.08194,42.1535],[-77.153954,42.110592],[-77.234329,42.105049],[-77.286743,42.069969],[-77.404404,42.080818],[-77.520683,42.123661],[-77.574738,42.118488],[-77.636757,42.138359],[-77.724907,42.1506],[-77.811028,42.148899],[-77.939407,42.116112],[-78.026627,42.10424],[-78.11692,42.072552],[-78.192909,42.038239],[-78.309311,42.01091],[-78.359756,41.980839],[-78.431679,41.934849],[-78.522636,41.962559],[-78.562042,41.969681],[-78.631287,41.967491],[-78.671417,41.899261],[-78.721992,41.865379],[-78.867393,41.858051],[-78.98542,41.852669],[-79.064293,41.843769],[-79.121391,41.824131],[-79.204552,41.840118],[-79.257393,41.838558],[-79.285019,41.77272],[-79.351692,41.700291],[-79.410568,41.662182],[-79.404793,41.566051],[-79.454292,41.485569],[-79.379173,41.436569],[-79.4394,41.33638],[-79.458801,41.276981],[-79.435944,41.219849],[-79.383553,41.18327],[-79.324448,41.134861],[-79.334381,41.170029],[-79.421638,41.191109],[-79.427063,41.242901],[-79.528961,41.272961],[-79.610947,41.297699],[-79.684158,41.336769],[-79.817238,41.380161],[-79.88633,41.376438],[-79.959862,41.35722],[-80.06723,41.352829],[-80.188919,41.387878],[-80.324158,41.420059],[-80.482521,41.392769],[-80.690788,41.375271],[-80.775551,41.307701],[-80.86058,41.274929],[-80.952744,41.219028],[-81.320068,41.250332],[-81.563278,41.253948],[-81.709396,41.303028],[-81.860947,41.348492],[-82.008591,41.379478],[-82.170372,41.388821],[-82.355621,41.340149],[-82.672394,41.333809],[-83.116272,41.402599],[-83.426369,41.51244],[-83.539459,41.613041],[-83.572433,41.67067],[-83.693893,41.688141],[-83.684242,41.821468],[-83.67746,41.960258],[-83.676064,42.10017],[-83.574593,42.228989],[-83.298912,42.2537],[-83.156891,42.328709],[-83.030197,42.383091],[-82.924057,42.430771],[-82.918259,42.5168],[-82.978691,42.493629],[-83.089844,42.478291],[-83.20826,42.48494],[-83.333382,42.491261],[-83.648872,42.51783],[-83.791847,42.549671],[-83.948753,42.601898],[-84.187897,42.654362],[-84.547859,42.658718],[-84.670433,42.781712],[-84.910507,42.86042],[-85.307739,42.87899],[-85.519859,42.903751],[-85.604858,43.006351],[-85.722343,43.021851],[-85.954132,43.054981],[-86.10051,43.094669],[-86.215538,43.30154],[-86.283737,43.39072],[-86.369759,43.492828],[-86.492363,43.54417],[-86.416069,43.558762],[-86.393082,43.629398],[-86.385612,43.74691],[-86.409233,43.855721],[-86.383598,43.934189],[-86.279587,44.15197],[-86.318626,44.250038],[-86.242828,44.327469],[-86.192932,44.361172],[-86.223251,44.408642],[-86.233368,44.517021],[-86.205437,44.5756],[-86.220741,44.620682],[-86.247597,44.67503],[-86.189751,44.68676],[-86.117317,44.711559],[-86.045967,44.796169],[-86.033493,44.859161],[-86.035492,44.886139],[-86.036049,44.833118],[-85.996437,44.807919],[-85.778267,44.777779],[-85.640251,44.772888],[-85.519272,44.756008],[-85.441162,44.84676],[-85.352638,45.01968],[-85.346909,45.148811],[-85.292213,45.298119],[-85.198677,45.342381],[-85.02964,45.358452],[-84.951668,45.378849],[-84.86541,45.414349],[-84.786339,45.444759],[-84.773018,45.65163],[-84.735069,45.767448],[-84.792236,45.863312],[-84.854179,45.904301],[-84.966301,45.982491],[-84.977577,46.005878],[-85.085518,46.030491],[-85.260033,46.065769],[-85.438797,46.097591],[-85.94854,46.094761],[-86.132149,45.9846],[-86.236427,45.946999],[-86.324783,45.909161],[-86.542603,45.891499],[-86.830116,45.89748],[-86.959427,45.864021],[-86.976303,45.840698],[-86.935226,45.92067],[-87.023376,45.85384],[-87.08239,45.787769],[-87.315483,45.704819],[-87.56385,45.709572],[-87.725311,45.75301],[-87.881721,45.784618],[-87.959183,45.802132],[-88.064339,45.815609],[-88.078194,45.866329],[-88.164413,45.89909],[-88.304321,45.948559],[-88.337563,46.052528],[-88.423309,46.094398],[-88.655983,46.092522],[-88.77047,46.158791],[-89.12719,46.258049],[-89.416267,46.291229],[-89.621971,46.37896],[-89.931458,46.476261],[-90.118828,46.473438],[-90.340248,46.493359],[-90.683578,46.60952],[-90.92778,46.58551],[-90.917511,46.64447],[-90.887329,46.75782],[-90.813087,46.813389],[-90.890617,46.88073],[-91.062279,46.86132],[-91.230232,46.832218],[-91.571442,46.747429],[-91.704697,46.676701],[-91.82515,46.64801],[-92.022346,46.687],[-92.145432,46.73201],[-92.190102,46.722351],[-92.13623,46.753761],[-92.05854,46.810928],[-91.975304,46.855389],[-91.876419,46.908031],[-91.79229,46.94313],[-91.627151,47.05019],[-91.550484,47.096401],[-91.459419,47.14645],[-91.358749,47.209648],[-91.289146,47.265881],[-91.217079,47.32156],[-91.113869,47.408871],[-90.968384,47.499699],[-90.968384,47.499699],[-91.10891,47.411831],[-91.227921,47.411228],[-91.291229,47.448158],[-91.353081,47.613892],[-91.480301,47.647049],[-91.581421,47.65427],[-91.630058,47.68396],[-91.663399,47.709042],[-91.739098,47.697369],[-91.835831,47.689098],[-91.886238,47.710819],[-91.970268,47.715778],[-92.199059,47.658409],[-92.358627,47.645538],[-92.545288,47.585602],[-92.638,47.515148],[-92.812889,47.478851],[-92.905098,47.47451],[-92.923492,47.4258],[-93.033203,47.394619],[-93.17028,47.369751],[-93.153023,47.203918],[-93.273453,46.98996],[-93.331352,46.795219],[-93.30423,46.728249],[-93.283234,46.569431],[-93.265152,46.373589],[-93.270714,46.241058],[-93.281174,45.989491],[-93.296829,45.864632],[-93.210678,45.71912],[-93.212257,45.581959],[-93.237961,45.47868],[-93.234909,45.240341],[-93.198647,45.11692],[-93.158958,45.061821],[-93.092018,44.954929],[-93.143127,44.909019],[-93.17305,44.8214],[-93.184372,44.77319],[-93.186684,44.773312],[-93.220482,44.805641],[-93.279556,44.861839],[-93.429863,44.866249],[-93.540039,44.84396],[-93.642197,44.77734],[-93.81221,44.767731],[-94.136627,44.767159],[-94.230003,44.674702],[-94.41655,44.543049],[-94.881432,44.53167],[-94.998306,44.542599],[-95.359734,44.541771],[-95.64225,44.457729],[-96.118263,44.444939],[-96.447609,44.441589],[-96.75856,44.42696],[-97.123154,44.32597],[-97.304863,44.361511],[-97.548897,44.383141],[-98.168266,44.370441],[-98.474991,44.416142],[-98.932716,44.517311],[-99.948563,44.526081],[-100.346153,44.382561],[-100.432602,44.38818],[-100.790298,44.386459],[-101.132584,44.146191],[-101.274719,44.062401],[-101.538902,44.056351],[-101.756599,44.008099],[-102.024399,43.972271],[-102.238831,43.908291],[-102.221947,43.861092],[-102.19519,43.845551],[-102.164726,43.812408],[-102.068558,43.793591],[-102.03373,43.78931],[-102.008179,43.76796],[-101.972267,43.757671],[-101.972992,43.73341],[-102.13295,43.7132],[-102.442337,43.733421],[-102.543259,43.778351],[-102.708061,43.91341],[-102.896301,43.96954],[-103.232361,44.06757],[-103.280792,43.972641],[-103.379623,43.9422],[-103.454552,43.929878],[-103.518692,43.950729],[-103.575691,43.929771],[-103.595589,43.884109],[-103.638962,43.835281],[-103.592216,43.768452],[-103.507233,43.770321],[-103.481018,43.7607],[-103.475662,43.745621],[-103.492142,43.725399],[-103.477814,43.70969],[-103.468178,43.670158],[-103.489899,43.628071],[-103.493179,43.601479],[-103.486588,43.58725],[-103.485558,43.57975],[-103.476624,43.54921],[-103.473717,43.459671],[-103.526253,43.428761],[-103.69043,43.432159],[-103.748894,43.392681],[-103.850616,43.304062],[-104.064499,43.30444],[-104.300247,43.303268],[-104.362923,42.987381],[-104.439629,42.781971],[-104.619591,42.774551],[-104.82457,42.756821],[-105.113129,42.681808],[-105.339462,42.731361],[-105.407043,42.76181],[-105.625557,42.79707],[-105.966614,42.835602],[-106.291344,42.855541],[-106.418793,42.87125],[-106.72187,43.002789],[-107.035683,43.040581],[-107.403259,43.136379],[-107.907188,43.191799],[-108.106323,43.235481],[-108.400772,43.188599],[-108.628281,43.214779],[-108.79985,43.211632],[-109.024818,43.238781],[-109.293251,43.3745],[-109.442101,43.416962],[-109.496819,43.475811],[-109.58078,43.51638],[-109.657707,43.543671],[-109.795227,43.602959],[-109.920288,43.643749],[-109.96505,43.705952],[-110.015732,43.720322],[-110.05999,43.74585],[-110.09137,43.768681],[-110.183861,43.81419],[-110.266449,43.82045],[-110.263237,43.842972],[-110.273041,43.85318],[-110.264801,43.84734],[-110.267502,43.836361],[-110.282547,43.817299],[-110.344353,43.8246],[-110.4552,43.840038],[-110.518822,43.853321],[-110.58963,43.860519],[-110.610603,43.842041],[-110.573128,43.87236],[-110.62133,43.904469],[-110.633873,43.945961],[-110.672562,43.994991],[-110.690338,44.054699],[-110.67321,44.107231],[-110.665428,44.112202],[-110.657867,44.19268],[-110.653526,44.234032],[-110.625092,44.28109],[-110.596092,44.334148],[-110.581383,44.416698],[-110.653503,44.43354],[-110.677742,44.444019],[-110.706093,44.448109],[-110.744408,44.433849],[-110.800201,44.439812],[-110.849113,44.46212],[-110.83297,44.512981],[-110.816437,44.569881],[-110.850433,44.61105],[-110.860527,44.63966],[-110.799469,44.650452],[-110.756393,44.657681],[-110.746201,44.679581],[-110.710098,44.716728],[-110.719772,44.750759],[-110.744171,44.79702],[-110.735939,44.852928],[-110.734177,44.881001],[-110.719948,44.939861],[-110.706207,44.966728],[-110.694252,44.971741],[-110.693336,44.998341],[-110.701363,45.025719],[-110.776009,45.08284],[-110.847633,45.166679],[-110.86792,45.255829],[-110.68576,45.416641],[-110.571053,45.595249],[-110.64415,45.662231],[-110.730942,45.661549],[-110.840202,45.663101],[-110.93779,45.647919],[-111.056961,45.701191],[-111.236092,45.805359],[-111.46376,45.890442],[-111.602348,45.898041],[-111.74662,45.815289],[-111.851936,45.821999],[-111.909218,45.837051],[-112.037033,45.871868],[-112.288727,45.914631],[-112.372711,45.91497],[-112.445343,45.92844],[-112.500008,45.979839],[-112.654083,46.00708],[-112.788834,46.084702],[-112.929787,46.126541],[-113.140099,46.160259],[-113.263046,46.173489],[-113.26696,46.183929],[-113.287697,46.227989],[-113.332367,46.251751],[-113.312767,46.382301],[-113.250351,46.447472],[-113.194893,46.592072],[-113.201859,46.69173],[-113.309258,46.71682],[-113.394409,46.698738],[-113.508713,46.71048],[-113.706223,46.75116],[-113.84948,46.848721],[-113.97702,46.867561],[-114.044067,46.884251],[-114.130699,46.952049],[-114.086311,47.036541],[-114.045479,47.14164],[-114.170929,47.255341],[-114.151016,47.295898],[-114.09687,47.474449],[-114.106796,47.669071],[-114.176201,47.69751],[-114.236122,47.798759],[-114.313461,47.80434],[-114.28347,47.83923],[-114.221992,47.876011],[-114.190018,47.91148],[-114.188789,47.96077],[-114.227859,48.032421],[-114.229507,48.078861],[-114.310493,48.189781],[-114.241432,48.31916],[-114.121689,48.382778],[-114.041122,48.39204],[-114.015648,48.453251],[-113.986328,48.509579],[-113.957649,48.544121],[-113.919319,48.568771],[-113.887718,48.599789],[-113.863007,48.640148],[-113.822304,48.674881],[-113.840073,48.653271],[-113.870621,48.622929],[-113.901192,48.58255],[-113.937714,48.559631],[-113.97216,48.533829],[-113.994431,48.524231],[-114.001244,48.47678],[-114.047768,48.416691],[-114.096008,48.38829],[-114.216049,48.370579],[-114.295792,48.205811],[-114.461746,48.12014],[-114.574402,48.102161],[-114.664673,48.084171],[-114.83741,48.043541],[-114.976501,48.023689],[-115.036102,48.02401],[-115.181282,48.086769],[-115.269669,48.067848],[-115.365059,48.038368],[-115.431747,48.132488],[-115.485252,48.250622],[-115.562531,48.392109],[-115.697479,48.446781],[-115.860359,48.43737],[-115.953796,48.534592],[-116.016747,48.606369],[-116.094856,48.68877],[-116.184113,48.732101],[-116.304779,48.713619],[-116.33091,48.677521],[-116.371727,48.60471],[-116.458878,48.48798],[-116.547958,48.334572],[-116.580589,48.328232],[-116.60202,48.33976],[-116.611038,48.356579],[-116.613052,48.359921],[-116.600739,48.344479],[-116.60434,48.329861],[-116.563904,48.319759],[-116.539703,48.233349],[-116.607521,48.127708],[-116.677109,47.99596],[-116.788132,47.814018],[-116.888611,47.709412],[-117.066551,47.68932],[-117.275009,47.67482],[-117.479591,47.63472],[-117.864677,47.66935],[-118.311699,47.64362],[-118.507103,47.758671],[-118.76519,47.807961],[-118.903748,47.918812],[-118.984291,47.932671],[-119.009598,47.969009],[-119.182762,47.975971],[-119.485222,47.937908],[-119.639053,47.952839],[-119.632347,48.00251],[-119.654869,48.007092],[-119.716759,48.102249],[-119.864021,48.069778],[-119.950119,48.06366],[-120.006271,48.07373],[-120.010918,48.110619],[-120.032768,48.14257],[-120.10318,48.197151],[-120.090401,48.264778],[-120.082619,48.348652],[-120.144249,48.4114],[-120.187111,48.4771],[-120.302109,48.531639],[-120.385841,48.573929],[-120.483231,48.586849],[-120.580612,48.598381],[-120.631302,48.5555],[-120.661942,48.52462],[-120.733032,48.510479],[-120.777542,48.56448],[-120.826859,48.615021],[-120.861389,48.659031],[-120.893944,48.692509],[-120.937134,48.705441],[-120.990356,48.71183],[-121.063667,48.72588],[-121.091003,48.708359],[-121.104843,48.691929],[-121.138702,48.70797],[-121.181847,48.704861],[-121.220901,48.69379],[-121.247147,48.673641],[-121.318108,48.63694],[-121.360832,48.614689],[-121.403587,48.581619],[-121.453087,48.526501],[-121.540512,48.49498],[-121.601601,48.48793],[-121.689781,48.516708],[-121.813629,48.541351],[-122.063187,48.529179],[-122.24395,48.509781],[-122.493279,48.451698],[-122.60244,48.44614],[-122.637741,48.41724],[-122.647308,48.39254],[-122.648109,48.396721],[-122.647827,48.393879],[-122.612488,48.35498],[-122.66526,48.284279],[-122.717781,48.238998],[-122.705948,48.212261],[-122.674309,48.160469],[-122.75798,48.122929],[-122.768837,48.132851],[-122.79464,48.103359],[-122.82074,48.040371],[-122.859093,47.98988],[-122.862282,48.014511],[-123.006218,48.020699],[-123.134918,48.073929],[-123.355209,48.102928],[-123.428528,48.095451],[-123.420303,48.05724],[-123.430122,48.037369],[-123.453491,48.046638],[-123.49511,48.054089],[-123.542709,48.062691],[-123.670357,48.073448],[-123.744141,48.07946],[-123.78727,48.057789],[-123.832169,48.051979],[-123.875099,48.053551],[-123.930656,48.071331],[-124.173737,48.061771],[-124.370811,48.04694],[-124.403091,47.978222],[-124.462158,47.949329],[-124.602608,47.918079],[-124.477547,47.93298],[-124.43837,47.964008],[-124.409172,47.927479],[-124.357201,47.88937],[-124.317413,47.855289],[-124.2537,47.809399],[-124.27121,47.782188],[-124.357079,47.735741],[-124.410812,47.710411],[-124.38279,47.637001],[-124.319359,47.516731],[-124.161591,47.506989],[-123.972267,47.480518],[-123.876938,47.450661],[-123.907318,47.343121],[-123.9636,47.23243],[-124.019028,47.201462],[-124.049316,47.072079],[-124.084053,47.05579],[-124.160881,47.003021],[-124.149872,46.958241],[-124.15567,47.043499],[-124.00016,46.994289],[-123.960564,46.98468],[-123.810562,46.97298],[-123.73494,46.93515],[-123.717583,46.909641],[-123.717163,46.850201],[-123.743149,46.797001],[-123.747452,46.73262],[-123.729446,46.683369],[-123.811058,46.665939],[-123.89444,46.67997],[-123.916718,46.618912],[-123.887421,46.478439],[-123.834167,46.394112],[-123.798607,46.332001],[-123.822983,46.27047],[-123.872429,46.2416],[-123.892509,46.164799],[-123.952217,46.175152],[-123.602913,45.816471],[-123.594009,45.842018],[-123.587143,45.860909],[-123.667442,45.90279],[-123.717979,45.906471],[-123.801666,45.90752],[-123.895531,45.922791],[-123.923447,45.963161],[-123.914352,46.051979],[-123.932472,46.144741],[-123.965012,46.17968],[-123.60199,45.834309],[-123.584778,45.8507],[-123.578499,45.865688],[-123.528511,45.849251],[-123.494041,45.82111],[-123.419991,45.77552],[-123.327904,45.775082],[-123.238251,45.72168],[-123.161583,45.661011],[-122.906021,45.55621],[-122.707832,45.50948],[-122.67836,45.547508],[-122.652229,45.599751],[-122.683708,45.601528],[-122.690018,45.515331],[-122.749031,45.50671],[-123.100822,45.60907],[-123.233917,45.609322],[-123.305939,45.654751],[-123.363297,45.631821],[-123.42099,45.61552],[-123.482407,45.60487],[-123.545021,45.586079],[-123.588463,45.561432],[-123.609337,45.528358],[-123.601471,45.499199],[-123.677162,45.496281],[-123.727257,45.474361],[-123.877586,45.44698],[-123.929108,45.419418],[-123.962013,45.366669],[-123.963333,45.358829],[-123.970337,45.344021],[-123.944099,45.32914],[-123.96402,45.253139],[-123.952026,45.190811],[-123.949242,45.158241],[-123.981621,45.102402],[-123.948532,45.060719],[-123.978813,45.012299],[-124.015411,44.96867],[-124.014542,44.92342],[-124.063469,44.828522],[-124.070251,44.777931],[-124.055817,44.7416],[-124.053291,44.72818],[-124.054329,44.634449],[-124.059258,44.60762],[-124.053146,44.636021],[-123.981888,44.625408],[-123.923157,44.64378],[-123.855324,44.677959],[-123.839012,44.657829],[-123.815933,44.66766],[-123.764587,44.62767],[-123.688087,44.619179],[-123.590233,44.594521],[-123.48835,44.60487],[-123.41526,44.565948],[-123.299362,44.554531],[-123.159943,44.565971],[-123.061523,44.385891],[-123.086098,44.061241],[-123.108093,44.075771],[-123.067589,44.086971],[-123.097603,44.090988],[-123.197327,44.048801],[-123.426781,44.05217],[-123.487129,44.071491],[-123.540268,44.047039],[-123.610909,44.015629],[-123.641838,43.999321],[-123.698639,43.999401],[-123.756798,44.00491],[-123.807953,44.02103],[-123.859512,44.0205],[-123.94249,44.01601],[-124.071129,43.976398],[-124.108231,43.921391],[-124.14875,43.82938],[-124.14212,43.782688],[-124.121536,43.750011],[-124.117142,43.696461],[-124.191048,43.64362],[-124.215446,43.53384],[-124.220741,43.398079],[-124.314987,43.347389],[-124.342468,43.339909],[-124.348244,43.342789],[-124.328697,43.339981],[-124.292664,43.370522],[-124.221901,43.443581],[-124.184151,43.586971],[-124.17572,43.674271],[-124.187683,43.63657],[-124.224007,43.471561],[-124.219917,43.381981],[-124.203423,43.327099],[-124.254723,43.285919],[-124.306847,43.204842],[-124.398277,43.152069],[-124.39859,43.120338],[-124.42366,42.978119],[-124.466728,42.864128],[-124.525368,42.828861],[-124.550034,42.831692],[-124.524033,42.831081],[-124.497421,42.745831],[-124.454659,42.699871],[-124.43454,42.68988],[-124.41909,42.670841],[-124.397202,42.619732],[-124.39196,42.580231],[-124.418671,42.463829],[-124.422783,42.388458],[-124.411957,42.338009],[-124.40979,42.305981],[-124.383942,42.229172],[-124.363983,42.188019],[-124.353218,42.146069],[-124.307709,42.06646],[-124.282051,42.052399],[-124.204552,41.953979],[-124.15049,41.808788],[-124.192238,41.75251],[-124.129547,41.709419],[-124.113922,41.680408],[-124.115692,41.634331],[-124.100807,41.595798],[-124.028458,41.513439],[-124.031311,41.457359],[-124.000938,41.42408],[-123.994743,41.377151],[-124.016891,41.353699],[-124.044907,41.31176],[-124.092934,41.281631],[-124.086304,41.226669],[-124.109894,41.190529],[-124.136948,41.141708],[-124.141296,41.063931],[-124.114189,40.99276],[-124.084778,40.826679],[-124.191658,40.76791],[-124.205093,40.66],[-124.185432,40.607689],[-124.151154,40.526039],[-124.091759,40.463959],[-124.015869,40.443661],[-123.946411,40.396938],[-123.925392,40.354599],[-123.917847,40.314919],[-123.88932,40.283081],[-123.866119,40.266579],[-123.828888,40.22636],[-123.772842,40.19482],[-123.796356,40.1507],[-123.791298,40.073238],[-123.777298,40.032749],[-123.791496,40.014999],[-123.802383,39.980751],[-123.760674,39.927181],[-123.749336,39.905659],[-123.74305,39.887039],[-123.712791,39.869709],[-123.72966,39.850368],[-123.741089,39.851791],[-123.75383,39.860649],[-123.766838,39.848869],[-123.77771,39.82814],[-123.798683,39.80759],[-123.808357,39.80069],[-123.820793,39.79855],[-123.832497,39.77467],[-123.81324,39.73579],[-123.813469,39.725288],[-123.803047,39.724602],[-123.800323,39.69838],[-123.780861,39.648151],[-123.780884,39.616058],[-123.778069,39.590221],[-123.763298,39.557098],[-123.774033,39.500092],[-123.80645,39.458542],[-123.796738,39.310322],[-123.79026,39.27346],[-123.775002,39.242901],[-123.76828,39.20578],[-123.755043,39.198448],[-123.710983,39.180279],[-123.663559,39.17173],[-123.632874,39.157909],[-123.599709,39.157318],[-123.571159,39.160141],[-123.53376,39.133438],[-123.46888,39.080139],[-123.374519,39.019081],[-123.342987,38.96801],[-123.298767,38.926579],[-123.265373,38.91431],[-123.206558,38.89344],[-123.154221,38.886082],[-123.125977,38.886791],[-123.093712,38.868629],[-123.076393,38.84779],[-123.058891,38.839161],[-123.044441,38.82922],[-122.974983,38.758572],[-122.886383,38.69437],[-122.861412,38.599171],[-122.716858,38.433708],[-122.850273,38.397202],[-122.891991,38.383308],[-122.947121,38.354912],[-123.013184,38.321999],[-123.045914,38.336048],[-123.055527,38.325409],[-123.049278,38.335159],[-123.010803,38.324539],[-122.937492,38.3563],[-122.889427,38.388592],[-122.839508,38.39819],[-122.709061,38.431389],[-122.716141,38.405029],[-122.624222,38.24445],[-122.563911,38.134628],[-122.530777,38.054581],[-122.518402,37.96722],[-122.51535,37.87883],[-122.486702,37.840511],[-122.471992,37.77264],[-122.471786,37.68145],[-122.490562,37.65398],[-122.505852,37.593521],[-122.516083,37.571972],[-122.506729,37.521191],[-122.442772,37.46492],[-122.398003,37.359192],[-122.404549,37.306839],[-122.407288,37.224419],[-122.321152,37.140011],[-122.255882,37.067749],[-122.125107,36.970989],[-122.030373,36.98399],[-121.937889,36.98138],[-121.91671,36.981152],[-121.770958,36.866268],[-121.765968,36.754211],[-121.815666,36.647381],[-121.870682,36.595051],[-121.82341,36.576149],[-121.759552,36.576881],[-121.761719,36.573509],[-121.82798,36.580879],[-121.879631,36.592312],[-121.908318,36.541801],[-121.937714,36.49416],[-121.918808,36.43507],[-121.901367,36.38039],[-121.901573,36.354568],[-121.88604,36.333912],[-121.841919,36.287071],[-121.795403,36.264172],[-121.766953,36.23307],[-121.75174,36.21722],[-121.735291,36.205421],[-121.71328,36.195202],[-121.696373,36.177158],[-121.672729,36.161171],[-121.631279,36.121071],[-121.613441,36.08297],[-121.589592,36.050072],[-121.536301,36.01836],[-121.494492,35.989422],[-121.466148,35.921982],[-121.452988,35.882118],[-121.408531,35.850201],[-121.393028,35.834171],[-121.374359,35.819679],[-121.35907,35.81073],[-121.346092,35.799091],[-121.331757,35.783691],[-121.319252,35.762241],[-121.291557,35.693432],[-121.221703,35.653252],[-121.128082,35.599339],[-121.072983,35.55249],[-120.990929,35.477268],[-120.88752,35.437881],[-120.774918,35.351341]]}}]}